{"version": 0.6, "generator": "Overpass API 0.7.62.1 084b4234", "osm3s": {"timestamp_osm_base": "2024-04-26T23:31:24Z", "copyright": "The data included in this document is from www.openstreetmap.org. The data is made available under ODbL."}, "elements": [{"type": "node", "id": 3178190161, "lat": 25.2019507, "lon": 91.9155148, "tags": {"name": "Mawlynnong", "note": "Asia's Cleanest Village Award", "place": "hamlet", "tourism": "attraction", "wikidata": "Q6794437", "wikipedia": "en:Mawlynnong"}}, {"type": "node", "id": 4022576225, "lat": 25.1855224, "lon": 91.9972406, "tags": {"name": "Songrampunji Falls", "name:ru": "\u0412\u043e\u0434\u043e\u043f\u0430\u0434 \u0421\u043e\u043d\u0433\u0440\u0430\u043c\u043f\u0443\u043d\u0434\u0436\u0438", "tourism": "attraction", "waterway": "waterfall"}}, {"type": "node", "id": 4022576334, "lat": 25.1872191, "lon": 91.996453, "tags": {"name": "Ukrem Falls", "name:ru": "\u0423\u043c\u043a\u0440\u0435\u043c\u0441\u043a\u0438\u0439 \u0432\u043e\u0434\u043e\u043f\u0430\u0434", "tourism": "attraction", "waterway": "waterfall"}}, {"type": "node", "id": 4550690704, "lat": 24.9234616, "lon": 91.947316, "tags": {"name:en": "FIVDB", "tourism": "guest_house"}}, {"type": "node", "id": 4566501289, "lat": 25.2081299, "lon": 92.0086115, "tags": {"addr:street": "Shnongpdeng", "name": "Hala Tong", "name:en": "Hala Tong", "phone": "+9615762788", "tourism": "guest_house"}}, {"type": "node", "id": 4571388114, "lat": 25.2064604, "lon": 91.8979338}, {"type": "node", "id": 4874428267, "lat": 25.1831681, "lon": 91.9578879, "tags": {"name": "Borhill Falls", "tourism": "attraction", "waterway": "waterfall"}}, {"type": "node", "id": 4905897538, "lat": 25.2077957, "lon": 91.8905289, "tags": {"fee": "yes", "name": "Nohwet View Point", "tourism": "viewpoint"}}, {"type": "node", "id": 4905938627, "lat": 25.2024411, "lon": 91.9153222, "tags": {"name": "Ha La Tyngkong Homestay and Restaurant", "tourism": "hotel"}}, {"type": "node", "id": 5133287426, "lat": 25.1057751, "lon": 92.1762478, "tags": {"name:en": "Lala Khal", "tourism": "attraction"}}, {"type": "node", "id": 5154887257, "lat": 24.9380811, "lon": 91.990174}, {"type": "node", "id": 5154887258, "lat": 24.9380843, "lon": 91.990313}, {"type": "node", "id": 5154887259, "lat": 24.9379431, "lon": 91.9903165}, {"type": "node", "id": 5154887260, "lat": 24.9379431, "lon": 91.9901962}, {"type": "node", "id": 5156407847, "lat": 24.9740745, "lon": 92.0344361}, {"type": "node", "id": 5156407848, "lat": 24.9739654, "lon": 92.0349349}, {"type": "node", "id": 5156407849, "lat": 24.9743432, "lon": 92.0350354}, {"type": "node", "id": 5156407850, "lat": 24.9742342, "lon": 92.0355336}, {"type": "node", "id": 5156407851, "lat": 24.9747254, "lon": 92.0356644}, {"type": "node", "id": 5156407852, "lat": 24.9748037, "lon": 92.0353065}, {"type": "node", "id": 5156407853, "lat": 24.9748712, "lon": 92.0349982}, {"type": "node", "id": 5156407854, "lat": 24.974605, "lon": 92.0349273}, {"type": "node", "id": 5156407855, "lat": 24.9746774, "lon": 92.0345966}, {"type": "node", "id": 5156447419, "lat": 25.0103928, "lon": 92.0584854, "tags": {"addr:city": "Sylhet", "name": "Barobuya Guest House", "tourism": "guest_house"}}, {"type": "node", "id": 5156450548, "lat": 25.0108588, "lon": 92.0588033}, {"type": "node", "id": 5156450549, "lat": 25.0107348, "lon": 92.0604341}, {"type": "node", "id": 5156450550, "lat": 25.0102657, "lon": 92.0603429}, {"type": "node", "id": 5156450551, "lat": 25.0098628, "lon": 92.0603085}, {"type": "node", "id": 5156450552, "lat": 25.0099847, "lon": 92.0584929}, {"type": "node", "id": 5156450553, "lat": 25.010453, "lon": 92.0586168}, {"type": "node", "id": 5158242054, "lat": 25.1349273, "lon": 92.1224942, "tags": {"addr:city": "Sylhet", "name": "RHD Inspection Banglaw,Jaintapur", "tourism": "guest_house"}}, {"type": "node", "id": 5158257705, "lat": 25.1835701, "lon": 92.0321711, "tags": {"name": "\u09a4\u09be\u09ae\u09be\u09ac\u09bf\u09b2 \u099c\u09bf\u09b0\u09cb \u09aa\u09af\u09bc\u09c7\u09a8\u09cd\u099f", "tourism": "attraction"}}, {"type": "node", "id": 5371423363, "lat": 25.2055649, "lon": 91.911487, "tags": {"fixme": "Really here? Check position", "tourism": "guest_house"}}, {"type": "node", "id": 5371423402, "lat": 25.2063826, "lon": 91.90925, "tags": {"fee": "yes", "name": "Balancing Rock of Mawlynnong", "tourism": "attraction"}}, {"type": "node", "id": 5371423515, "lat": 25.2066448, "lon": 91.8976655}, {"type": "node", "id": 5371423578, "lat": 25.2037095, "lon": 91.8912792, "tags": {"tourism": "viewpoint"}}, {"type": "node", "id": 5372577012, "lat": 25.1864691, "lon": 92.0056728, "tags": {"tourism": "attraction", "waterway": "waterfall"}}, {"type": "node", "id": 5379578761, "lat": 25.1933731, "lon": 91.9576626, "tags": {"tourism": "viewpoint"}}, {"type": "node", "id": 5379578774, "lat": 25.1936061, "lon": 91.9546732, "tags": {"name": "Rymben Falls", "tourism": "attraction", "waterway": "waterfall"}}, {"type": "node", "id": 5381302678, "lat": 25.2873577, "lon": 92.1256989, "tags": {"name": "Krang Shuri", "tourism": "attraction", "waterway": "waterfall"}}, {"type": "node", "id": 5460476442, "lat": 25.181955, "lon": 91.8994962, "tags": {"name": "\u0995\u09c2\u09b2\u09a8\u099b\u09dc\u09be \u099d\u09b0\u09cd\u09a8\u09be", "name:en": "Qulonchora Falls", "tourism": "attraction", "waterway": "waterfall"}}, {"type": "node", "id": 6191093405, "lat": 25.2146918, "lon": 91.9505507, "tags": {"tourism": "attraction", "waterway": "waterfall"}}, {"type": "node", "id": 6203746232, "lat": 25.2027084, "lon": 91.9150355, "tags": {"tourism": "guest_house"}}, {"type": "node", "id": 6924908776, "lat": 25.2012203, "lon": 91.9152104, "tags": {"name": "Nangkiew Home Stay", "tourism": "apartment"}}, {"type": "node", "id": 6996294585, "lat": 25.1849587, "lon": 92.0205588, "tags": {"name": "Khonglah Guesthouse", "tourism": "guest_house"}}, {"type": "node", "id": 6996312287, "lat": 25.2080535, "lon": 92.0079151, "tags": {"name": "Road Side Homestay", "tourism": "guest_house"}}, {"type": "node", "id": 6996313085, "lat": 25.2039283, "lon": 92.0208189, "tags": {"name": "Darrang Village", "tourism": "attraction"}}, {"type": "node", "id": 6996318986, "lat": 25.2095178, "lon": 92.0035603, "tags": {"name": "Pioneer Camp", "tourism": "camp_site"}}, {"type": "node", "id": 6996319085, "lat": 25.2106537, "lon": 92.0073663, "tags": {"tourism": "viewpoint"}}, {"type": "node", "id": 6996319086, "lat": 25.2068738, "lon": 92.0052911, "tags": {"name": "Fabian Camp", "tourism": "camp_site"}}, {"type": "node", "id": 6996319087, "lat": 25.2064326, "lon": 92.0056324, "tags": {"name": "Shatsngi Homestay", "tourism": "guest_house"}}, {"type": "node", "id": 6996319185, "lat": 25.208161, "lon": 92.0058228, "tags": {"tourism": "viewpoint"}}, {"type": "node", "id": 6996319288, "lat": 25.206875, "lon": 92.0073, "tags": {"name": "Manshwa Camp", "tourism": "camp_site"}}, {"type": "node", "id": 6996319986, "lat": 25.2072717, "lon": 92.0070869, "tags": {"name": "Augustine Homestay & Camping", "tourism": "camp_site"}}, {"type": "node", "id": 6996327185, "lat": 25.2079269, "lon": 92.0066336, "tags": {"name": "Frank Riverside Camps", "tourism": "camp_site"}}, {"type": "node", "id": 6996328385, "lat": 25.2075293, "lon": 92.0069349, "tags": {"name": "Laiva River Camping", "tourism": "camp_site"}}, {"type": "node", "id": 6996328392, "lat": 25.2064191, "lon": 92.0076403, "tags": {"name": "Bluestar Tents Riverside Camping", "tourism": "camp_site"}}, {"type": "node", "id": 6996331086, "lat": 25.2069976, "lon": 92.0074742, "tags": {"name": "Rajesh & Pyrkhat tents & Camping", "tourism": "camp_site"}}, {"type": "node", "id": 6996331087, "lat": 25.2066573, "lon": 92.0078382, "tags": {"name": "Steven Camps", "tourism": "camp_site"}}, {"type": "node", "id": 6996331088, "lat": 25.2069772, "lon": 92.0084815, "tags": {"name": "Marvel\u2019s Camps", "tourism": "camp_site"}}, {"type": "node", "id": 6996331089, "lat": 25.2052592, "lon": 92.0095649, "tags": {"name": "Shnongpdeng Camping & Tents", "tourism": "camp_site"}}, {"type": "node", "id": 6996333085, "lat": 25.2070082, "lon": 92.0071803, "tags": {"name": "Bob\u2019s Camping Site", "tourism": "camp_site"}}, {"type": "node", "id": 7003669986, "lat": 25.2331828, "lon": 92.0280344, "tags": {"name": "Amshlai Homestay", "tourism": "guest_house"}}, {"type": "node", "id": 7003669987, "lat": 25.2324077, "lon": 92.030009, "tags": {"name": "Kudengrim Spots", "tourism": "attraction"}}, {"type": "node", "id": 7003699685, "lat": 25.2296268, "lon": 92.0317092, "tags": {"name": "Double-decker living root bridge & waterfall", "tourism": "attraction"}}, {"type": "node", "id": 7003743087, "lat": 25.2267795, "lon": 92.0339454, "tags": {"tourism": "viewpoint"}}, {"type": "node", "id": 7003756427, "lat": 25.231372, "lon": 92.0308057, "tags": {"name": "Waterfall viewpoint", "name:en": "Bamboo lader & waterfall viewpoint", "tourism": "viewpoint"}}, {"type": "node", "id": 7003759889, "lat": 25.2317787, "lon": 92.0303967, "tags": {"name": "Concrete bridge", "tourism": "information"}}, {"type": "node", "id": 7003770687, "lat": 25.2323874, "lon": 92.0300643, "tags": {"name": "Tree house & viewpoint", "tourism": "viewpoint"}}, {"type": "node", "id": 7003979786, "lat": 25.2515041, "lon": 91.9551791, "tags": {"name": "Deli Baiar", "tourism": "guest_house"}}, {"type": "node", "id": 7007414885, "lat": 25.1900925, "lon": 92.0189552, "tags": {"tourism": "viewpoint"}}, {"type": "node", "id": 7007414985, "lat": 25.1863713, "lon": 92.0164732, "tags": {"name": "River relaxing spot", "tourism": "viewpoint"}}, {"type": "node", "id": 7007521985, "lat": 25.2037514, "lon": 91.9130313, "tags": {"name": "Kharawshun Homestay", "tourism": "guest_house"}}, {"type": "node", "id": 7007673385, "lat": 25.2049005, "lon": 91.9113086, "tags": {"name": "Eco Tourist Lodge", "name:en": "Verde Eco Tourist Lodge", "tourism": "alpine_hut"}}, {"type": "node", "id": 7007675785, "lat": 25.204598, "lon": 91.9134755, "tags": {"name": "Benjamin Guesthouse", "tourism": "guest_house"}}, {"type": "node", "id": 7007680186, "lat": 25.202547, "lon": 91.9142955, "tags": {"name": "Ilajong Homestay", "tourism": "guest_house"}}, {"type": "node", "id": 7007748185, "lat": 25.2065435, "lon": 91.8977875, "tags": {"name": "Living root bridge", "name:ru": "\u0416\u0438\u0432\u043e\u0439 \u043c\u043e\u0441\u0442", "tourism": "viewpoint"}}, {"type": "node", "id": 7007976885, "lat": 25.2050812, "lon": 91.9109707, "tags": {"name": "Areca Cottages", "tourism": "alpine_hut"}}, {"type": "node", "id": 7013031985, "lat": 25.2336636, "lon": 92.0267642, "tags": {"name": "Viewpoint over Bangladesh", "tourism": "viewpoint"}}, {"type": "node", "id": 7934373785, "lat": 25.1165275, "lon": 92.1841912, "tags": {"name:en": "Lalakhal Border", "tourism": "attraction"}}, {"type": "node", "id": 11357592236, "lat": 25.2858611, "lon": 92.1059286, "tags": {"addr:city": "Shillong", "addr:district": "West Jaintia Hills", "addr:housenumber": "Amlarem", "internet_access": "yes", "internet_access:fee": "customers", "name": "Homestay", "rooms": "3", "tourism": "hotel"}}, {"type": "node", "id": 11357592260, "lat": 25.2872439, "lon": 92.1046979}, {"type": "node", "id": 11357592261, "lat": 25.2872622, "lon": 92.1045858}, {"type": "node", "id": 11357592262, "lat": 25.2871764, "lon": 92.1045578}, {"type": "node", "id": 11357592263, "lat": 25.2871355, "lon": 92.1045873}, {"type": "node", "id": 11357592264, "lat": 25.2871201, "lon": 92.1047025}, {"type": "node", "id": 11357592265, "lat": 25.2871637, "lon": 92.104715}, {"type": "node", "id": 11357592266, "lat": 25.2871792, "lon": 92.1046916}, {"type": "node", "id": 11357592267, "lat": 25.2872439, "lon": 92.105003}, {"type": "node", "id": 11357592268, "lat": 25.2872524, "lon": 92.1049345}, {"type": "node", "id": 11357592269, "lat": 25.2872228, "lon": 92.1049096}, {"type": "node", "id": 11357592270, "lat": 25.2872383, "lon": 92.1048317}, {"type": "node", "id": 11357592271, "lat": 25.2871989, "lon": 92.1048255}, {"type": "node", "id": 11357592272, "lat": 25.2871862, "lon": 92.1048956}, {"type": "node", "id": 11357592273, "lat": 25.2871552, "lon": 92.1049033}, {"type": "node", "id": 11357592274, "lat": 25.2871426, "lon": 92.1049765}, {"type": "node", "id": 11357592275, "lat": 25.2871904, "lon": 92.1049983}, {"type": "node", "id": 11357592276, "lat": 25.2871862, "lon": 92.1050917}, {"type": "node", "id": 11357592277, "lat": 25.2872158, "lon": 92.1050917}, {"type": "node", "id": 11563376569, "lat": 25.2281043, "lon": 92.0088669, "tags": {"name": "Living root bridge", "tourism": "attraction"}}, {"type": "node", "id": 11758223778, "lat": 25.2630183, "lon": 91.9491794, "tags": {"tourism": "viewpoint"}}, {"type": "node", "id": 11758295959, "lat": 25.261845, "lon": 91.9501842, "tags": {"name": "Ka Bri War Resort", "tourism": "hotel"}}, {"type": "way", "id": 530979221, "nodes": [5154887257, 5154887258, 5154887259, 5154887260, 5154887257], "tags": {"addr:city": "Sylhet", "building": "yes", "name": "Sylhet Pacific Hostel (Oli)", "tourism": "hostel"}}, {"type": "way", "id": 531166107, "nodes": [5156407847, 5156407848, 5156407849, 5156407850, 5156407851, 5156407852, 5156407853, 5156407854, 5156407855, 5156407847], "tags": {"addr:city": "Sylhet", "name": "Umonpur Fish Farm", "tourism": "aquarium"}}, {"type": "way", "id": 531171811, "nodes": [5156450548, 5156450549, 5156450550, 5156450551, 5156450552, 5156450553, 5156450548], "tags": {"addr:city": "Sylhet", "building": "yes", "name": "Barobuya Project", "tourism": "aquarium"}}, {"type": "way", "id": 556878336, "nodes": [5371423515, 4571388114], "tags": {"bridge": "yes", "ford": "yes", "highway": "residential", "name:en": "Zingmaham Living Root Bridge", "tourism": "attraction", "vehicle": "no"}}, {"type": "way", "id": 1224694591, "nodes": [11357592260, 11357592261, 11357592262, 11357592263, 11357592264, 11357592265, 11357592266, 11357592260], "tags": {"addr:city": "Shillong", "addr:district": "West Jaintia Hills", "addr:housenumber": "Amlarem", "building": "yes", "guest_house": "hostel", "internet_access": "no", "name": "MHR hostel", "tourism": "hostel"}}, {"type": "way", "id": 1224694592, "nodes": [11357592267, 11357592268, 11357592269, 11357592270, 11357592271, 11357592272, 11357592273, 11357592274, 11357592275, 11357592276, 11357592277, 11357592267], "tags": {"addr:city": "Shillong", "addr:district": "West Jaintia Hills", "addr:housenumber": "Amlarem", "building": "yes", "guest_house": "hostel", "internet_access": "no", "name": "MHR hostel", "tourism": "hostel"}}]}