{"version": 0.6, "generator": "Overpass API 0.7.62.1 084b4234", "osm3s": {"timestamp_osm_base": "2024-04-26T23:31:24Z", "copyright": "The data included in this document is from www.openstreetmap.org. The data is made available under ODbL."}, "elements": [{"type": "node", "id": 7016324789, "lat": 25.4685653, "lon": 92.2788073, "tags": {"name": "Hotel Rajasthan", "phone": "+919485163336", "tourism": "hotel"}}, {"type": "node", "id": 7018603485, "lat": 25.3793869, "lon": 92.3256644, "tags": {"name": "Starline hotel and restaurant", "tourism": "hotel"}}, {"type": "node", "id": 7018603585, "lat": 25.3039584, "lon": 92.379167, "tags": {"name": "Highway Star hotel and restaurant", "tourism": "hotel"}}, {"type": "node", "id": 7018603586, "lat": 25.3797734, "lon": 92.3257797, "tags": {"name": "Friend's hotel and restaurant", "tourism": "hotel"}}, {"type": "node", "id": 7242741985, "lat": 25.3569232, "lon": 92.3691945, "tags": {"name": "Maya Guesthouse", "tourism": "hotel"}}, {"type": "node", "id": 10695051776, "lat": 25.3571926, "lon": 92.3692711, "tags": {"addr:postcode": "793200", "alt_name": "Rezwan Hotel", "email": "hirand508@gmail.com", "internet_access": "wlan", "name": "Rizwan Hotel & Restaurant", "phone": "+91 9366828731", "tourism": "hotel"}}]}