{"version": 0.6, "generator": "Overpass API 0.7.62.1 084b4234", "osm3s": {"timestamp_osm_base": "2024-04-26T23:32:24Z", "copyright": "The data included in this document is from www.openstreetmap.org. The data is made available under ODbL."}, "elements": [{"type": "node", "id": 5866167703, "lat": 24.4158067, "lon": 91.0544823, "tags": {"name": "Hotel Al-Kamal", "tourism": "hotel"}}, {"type": "node", "id": 6152945044, "lat": 24.1973839, "lon": 90.9157732, "tags": {"name": "Majedul Islam Hall", "tourism": "hostel"}}, {"type": "node", "id": 6152945698, "lat": 24.2009399, "lon": 90.917117, "tags": {"name": "Alhajj Murshid Uddin Hall", "tourism": "hostel"}}, {"type": "node", "id": 7459520152, "lat": 24.2188153, "lon": 90.7510432, "tags": {"name": "Masum-Mamun Store", "tourism": "hotel"}}, {"type": "node", "id": 7459520153, "lat": 24.2190519, "lon": 90.7512694, "tags": {"name": "Mahida-Mahiya Hotel", "tourism": "hotel"}}, {"type": "node", "id": 7459556377, "lat": 24.2310794, "lon": 90.7366382, "tags": {"name": "Oise-Onno Mistanno Vandar", "tourism": "hotel"}}, {"type": "node", "id": 7470719735, "lat": 24.1997323, "lon": 90.7822994}, {"type": "node", "id": 7470719736, "lat": 24.1997005, "lon": 90.7823638}, {"type": "node", "id": 7470719737, "lat": 24.1998669, "lon": 90.7824563}, {"type": "node", "id": 7470719738, "lat": 24.1999024, "lon": 90.7823892}, {"type": "way", "id": 798811058, "nodes": [7470719735, 7470719736, 7470719737, 7470719738, 7470719735], "tags": {"building": "yes", "tourism": "hostel"}}]}