{"version": 0.6, "generator": "Overpass API 0.7.62.1 084b4234", "osm3s": {"timestamp_osm_base": "2024-04-26T23:26:15Z", "copyright": "The data included in this document is from www.openstreetmap.org. The data is made available under ODbL."}, "elements": [{"type": "node", "id": 4704701513, "lat": 24.6252564, "lon": 91.6754707, "tags": {"addr:housenumber": "1845", "addr:postcode": "3203", "addr:street": "Dhaka-Sylhet Highway", "email": "johir72@gmail.com", "operator": "md johir uddin", "phone": "+8801711734926", "tourism": "hotel"}}, {"type": "node", "id": 4705062897, "lat": 24.6274648, "lon": 91.6762584, "tags": {"addr:housenumber": "01711734926", "addr:postcode": "3203", "addr:street": "johir", "email": "johir72@gmail.com", "internet_access": "wlan", "phone": "+8801711734926", "tourism": "hotel"}}, {"type": "node", "id": 5166994392, "lat": 24.7085822, "lon": 91.7363868}, {"type": "node", "id": 5166994393, "lat": 24.7085182, "lon": 91.7366291}, {"type": "node", "id": 5166994394, "lat": 24.7082522, "lon": 91.736544}, {"type": "node", "id": 5166994395, "lat": 24.7083162, "lon": 91.7363017}, {"type": "node", "id": 5168382115, "lat": 24.705532, "lon": 91.7320805, "tags": {"addr:city": "Sylhet", "name": "Nuhan Hotel", "tourism": "hotel"}}, {"type": "node", "id": 9966042293, "lat": 24.6020152, "lon": 91.752269, "tags": {"artwork_type": "statue", "tourism": "artwork"}}, {"type": "way", "id": 532479664, "nodes": [5166994392, 5166994393, 5166994394, 5166994395, 5166994392], "tags": {"addr:city": "Sylhet", "building": "yes", "name": "Hotel Osmani \u09b9\u09cb\u099f\u09c7\u09b2 \u0993\u09b8\u09ae\u09be\u09a8\u09bf", "tourism": "hotel"}}]}