{"version": 0.6, "generator": "Overpass API 0.7.62.1 084b4234", "osm3s": {"timestamp_osm_base": "2024-04-27T01:30:59Z", "copyright": "The data included in this document is from www.openstreetmap.org. The data is made available under ODbL."}, "elements": [{"type": "node", "id": 2883925204, "lat": 36.8056023, "lon": 7.734683}, {"type": "node", "id": 2883925209, "lat": 36.8057175, "lon": 7.7342755}, {"type": "node", "id": 2883925210, "lat": 36.8058285, "lon": 7.7347827}, {"type": "node", "id": 2883925212, "lat": 36.8059436, "lon": 7.7343752}, {"type": "node", "id": 4100396192, "lat": 36.7570729, "lon": 7.7415063, "tags": {"addr:street": "\u0627\u0644\u0637\u0631\u064a\u0642 \u0627\u0644\u0648\u0637\u0646\u064a \u0631\u0642\u0645 16", "name": "\u0645\u0633\u062c\u062f \u0627\u0644\u0647\u062f\u0649", "name:ar": "\u0645\u0633\u062c\u062f \u0627\u0644\u0647\u062f\u0649", "name:fr": "Masdj al houda", "opening_hours": "24/7", "tourism": "museum"}}, {"type": "node", "id": 4212532574, "lat": 36.8225012, "lon": 7.7192467, "tags": {"addr:city": "Sidi Amar", "addr:postcode": "23005", "tourism": "hotel"}}, {"type": "node", "id": 4469207190, "lat": 36.818519, "lon": 7.7119515, "tags": {"name": "\u0628\u062f\u0631\u064a \u0627\u0644\u0645\u0628\u0631\u064a", "name:ar": "\u0628\u062f\u0631\u064a \u0627\u0644\u0645\u0628\u0631\u064a", "name:fr": "Badri Al-Mubri", "tourism": "camp_site"}}, {"type": "node", "id": 4504225890, "lat": 36.7069483, "lon": 7.8501119, "tags": {"addr:city": "Besbes", "addr:country": "DZ", "name": "Alimentation g\u00e9n\u00e9rale faycal", "shop": "convenience", "tourism": "camp_site"}}, {"type": "node", "id": 4602427597, "lat": 36.830255, "lon": 7.7226467, "tags": {"name": "Cite 800 log chahmi", "name:fr": "Cite 800 log chahmi", "tourism": "attraction"}}, {"type": "node", "id": 4767094221, "lat": 36.8198117, "lon": 7.7113975, "tags": {"name": "\u0645\u062d\u0644 \u0645\u0631\u064a\u0631", "name:ar": "\u0645\u062d\u0644 \u0645\u0631\u064a\u0631", "name:fr": "Marir", "tourism": "chalet"}}, {"type": "node", "id": 5884811886, "lat": 36.7360974, "lon": 7.9218244, "tags": {"name": "\u0633\u064a\u062f\u064a \u0639\u0628\u062f", "name:ar": "\u0633\u064a\u062f\u064a \u0639\u0628\u062f", "name:fr": "Sidi Abd", "tourism": "alpine_hut"}}, {"type": "node", "id": 6252476686, "lat": 36.7922697, "lon": 7.61122, "tags": {"addr:city": "\u0633\u064a\u062f\u064a \u0639\u0645\u0627\u0631", "addr:city:ar": "\u0633\u064a\u062f\u064a \u0639\u0645\u0627\u0631", "addr:place": "\u062d\u062c\u0631 \u0627\u0644\u062f\u064a\u0633", "addr:place:ar": "\u062d\u062c\u0631 \u0627\u0644\u062f\u064a\u0633", "name": "\u0645\u0633\u062c\u062f \u0627\u0644\u0630\u0627\u0643\u0631\u064a\u0646", "name:ar": "\u0645\u0633\u062c\u062f \u0627\u0644\u0630\u0627\u0643\u0631\u064a\u0646", "name:fr": "Mosqu\u00e9e Edhakirine", "tourism": "hostel"}}, {"type": "node", "id": 6253587637, "lat": 36.7924103, "lon": 7.6109236, "tags": {"addr:city": "\u0633\u064a\u062f\u064a \u0639\u0645\u0627\u0631", "addr:city:ar": "\u0633\u064a\u062f\u064a \u0639\u0645\u0627\u0631", "addr:place": "\u062d\u062c\u0631 \u0627\u0644\u062f\u064a\u0633", "addr:place:ar": "\u062d\u062c\u0631 \u0627\u0644\u062f\u064a\u0633", "name": "\u0645\u0633\u062c\u062f \u0627\u0644\u0630\u0627\u0643\u0631\u064a\u0646", "name:ar": "\u0645\u0633\u062c\u062f \u0627\u0644\u0630\u0627\u0643\u0631\u064a\u0646", "name:fr": "Mosqu\u00e9e Edhakirine", "tourism": "chalet"}}, {"type": "node", "id": 6299033585, "lat": 36.7913446, "lon": 7.6117296, "tags": {"addr:city": "\u0633\u064a\u062f\u064a \u0639\u0645\u0627\u0631", "addr:city:ar": "\u0633\u064a\u062f\u064a \u0639\u0645\u0627\u0631", "addr:place": "\u062d\u062c\u0631 \u0627\u0644\u062f\u064a\u0633", "addr:place:ar": "\u062d\u062c\u0631 \u0627\u0644\u062f\u064a\u0633", "name": "\u0645\u0648\u0642\u0641 \u0633\u064a\u0627\u0631\u0627\u062a", "name:ar": "\u0645\u0648\u0642\u0641 \u0633\u064a\u0627\u0631\u0627\u062a", "name:fr": "Parking Auto", "tourism": "caravan_site"}}, {"type": "node", "id": 7044729187, "lat": 36.7054946, "lon": 7.8381396, "tags": {"amenity": "bar", "tourism": "camp_site"}}, {"type": "way", "id": 284669569, "nodes": [2883925209, 2883925204, 2883925210, 2883925212, 2883925209], "tags": {"building": "yes", "fax": "+21338892050", "internet_access": "yes", "name": "\u0641\u0646\u062f\u0642 \u0627\u0644\u0645\u0646\u0642\u0627\u0633", "name:ar": "\u0641\u0646\u062f\u0642 \u0627\u0644\u0645\u0646\u0642\u0627\u0633", "name:en": "El-Moungas Hotel", "name:fr": "Hotel El moungas", "phone": "+21338891185", "source": "Bing", "tourism": "hotel"}}]}