{"version": 0.6, "generator": "Overpass API 0.7.62.1 084b4234", "osm3s": {"timestamp_osm_base": "2024-04-27T01:30:59Z", "copyright": "The data included in this document is from www.openstreetmap.org. The data is made available under ODbL."}, "elements": [{"type": "node", "id": 5376722522, "lat": 36.6551393, "lon": 7.5923038, "tags": {"name": "H\u00f4tel Essalam", "tourism": "hotel"}}, {"type": "node", "id": 5959652256, "lat": 36.5759086, "lon": 7.3847571, "tags": {"addr:city": "Ouled Ali", "addr:country": "DZ", "addr:district": "guelma 24", "addr:place": "Hammam Ouled Ali", "name": "hotel et COMPLEXE THERMAL BOUCHAHRINE \u0645\u0631\u0643\u0628 \u062d\u0645\u0627\u0645 \u0628\u0648\u0634\u0647\u0631\u064a\u0646", "phone": "+213 37 23 91 02", "tourism": "hotel"}}, {"type": "node", "id": 5959652619, "lat": 36.5741121, "lon": 7.3824947, "tags": {"addr:city": "Ouled Ali", "addr:country": "DZ", "addr:district": "guelma 24", "addr:place": "Hammam Ouled Ali", "name": "hotel et complexe el baraka 1 \u0641\u0646\u062f\u0642 \u0648\u0645\u0646\u062a\u062c\u0639 \u0627\u0644\u0628\u0631\u0643\u0629", "name:en": "El Baraka Complex", "name:fr": "Complexe El Baraka", "phone": "+213 37 23 91 81", "tourism": "hotel"}}, {"type": "node", "id": 5960715100, "lat": 36.5701927, "lon": 7.3795442, "tags": {"name": "Auberge de jeunesse Hammam Ouled Ali \u0628\u064a\u062a \u0634\u0628\u0627\u0628 \u062d\u0645\u0627\u0645 \u0628\u064a\u062a \u0634\u0628\u0627\u0628", "tourism": "hostel"}}, {"type": "node", "id": 5961673196, "lat": 36.618843, "lon": 7.5297359, "tags": {"addr:city": "BIR Oual\u00e0a", "addr:country": "DZ", "addr:district": "Annanba 23", "name": "Hotel Haouara \u0641\u0646\u062f\u0642 \u0647\u0648\u0627\u0631\u0629", "name:fr": "Hotel Haouara", "tourism": "hotel"}}, {"type": "node", "id": 7272596185, "lat": 36.5741671, "lon": 7.3850148, "tags": {"name:fr": "Complexe el baraka", "tourism": "apartment"}}]}